{"results":[{"id":9316702,"distance":0,"lon":174.77327,"rating_count":2,"name":" The Boheme Workspace\/Studio\/Gallery","address_1":"118 The Parade, Island Bay","rating":4,"lat":-41.333698,"city":"Wellington","country":"nz"},{"id":11653232,"distance":0,"lon":174.763245,"rating_count":1,"name":"18 Harrison Street","address_1":"Brooklyn","rating":3,"lat":-41.306068,"city":"Wellington","country":"nz"},{"id":10132602,"distance":0,"lon":174.781647,"rating_count":34,"name":"19 Tory Street","address_1":"19 Tory Street","rating":4.03,"lat":-41.292927,"city":"Wellington","country":"nz"},{"id":8728122,"distance":0,"lon":174.777069,"rating_count":29,"name":"19 Tory Street","address_1":"Te Aro","rating":4.62,"lat":-41.295452,"city":"Wellington","country":"nz"},{"id":12398662,"distance":0,"lon":174.794113,"rating_count":7,"name":"200 Oriental Parade","address_1":"Oriental Bay ","rating":4.57,"lat":-41.291306,"city":"Wellington","country":"nz"},{"id":11337812,"distance":0,"lon":174.77623,"rating_count":2,"name":"38-42 Waring Taylor Street, Wellington","address_1":"Tripe Matthews Feist, 2nd floor, Petherick Tower","rating":4.5,"lat":-41.286461,"city":"Wellington","country":"nz"},{"id":10416012,"distance":0,"lon":174.785355,"rating_count":0,"name":"77a Majoribanks St","address_1":"Mount Victoria","rating":0,"lat":-41.296501,"city":"Wellington","country":"nz"},{"id":9878992,"distance":0,"lon":174.795959,"rating_count":5,"name":"9 Bourke Street (cnr Bourke \/ Upper Bourke)","address_1":"Kilbirnie","rating":5,"lat":-41.319092,"city":"Wellington","country":"nz"},{"id":11012322,"distance":0,"lon":174.77623,"rating_count":1,"name":"Above the northern end of the Terrace","address_1":"(Beehive end)","rating":5,"lat":-41.286461,"city":"Wellington","country":"nz"},{"id":1424544,"distance":0,"lon":174.776217,"rating_count":34,"name":"Aro Valley community centre","address_1":"48 Aro Street, right by the little park","rating":4.44,"lat":-41.28648,"city":"Wellington","country":"nz"},{"id":9620112,"distance":0,"lon":174.795959,"rating_count":11,"name":"ASB Sports Centre","address_1":"Kilbirnie","rating":4.64,"lat":-41.319092,"city":"Wellington","country":"nz"},{"id":10524232,"distance":0,"lon":174.77623,"rating_count":8,"name":"At Powa Centre (MYOGA)","address_1":"1 Marion Street, upstairs","rating":4.5,"lat":-41.286461,"city":"Wellington","country":"nz"},{"id":9082482,"distance":0,"lon":174.908051,"rating_count":3,"name":"Belmont","address_1":"Lower Hutt","rating":4.67,"lat":-41.209164,"city":"Wellington","country":"nz"},{"id":12416002,"distance":0,"lon":174.771729,"rating_count":1,"name":"berhampore nursery","address_1":"Emmerson st, Berhampore","rating":4,"lat":-41.321365,"city":"Wellington","country":"nz"},{"id":12023032,"distance":0,"lon":174.78215,"rating_count":11,"name":"Boardroom, Enspiral","address_1":"Level 2, 18-24 Allen st","rating":4.27,"lat":-41.293171,"city":"Wellington","country":"nz"},{"id":11836012,"distance":0,"lon":174.777573,"rating_count":0,"name":"Boardroom, Level 1, Aviation House","address_1":"12 Johnston Street","rating":0,"lat":-41.283051,"city":"Wellington","country":"nz"},{"id":8382102,"distance":0,"lon":174.984177,"rating_count":2,"name":"BodyFx Studio","address_1":"320 Moores Valley Road, Wainuiomata","rating":5,"lat":-41.259857,"city":"Wellington","country":"nz"},{"id":12055112,"distance":0,"lon":174.77327,"rating_count":0,"name":"Boheme Gallery ","address_1":"118 The Parade, Island Bay","rating":0,"lat":-41.333698,"city":"Wellington","country":"nz"},{"id":8682462,"distance":0,"lon":174.821304,"rating_count":5,"name":"California Garden Centre","address_1":"139 Park Road Miramar","rating":4.6,"lat":-41.308277,"city":"Wellington","country":"nz"},{"id":8316262,"distance":0,"lon":174.774933,"rating_count":20,"name":"Carter Observatory","address_1":"Botanic Gardens (top of Cable Car)","rating":4.8,"lat":-41.284252,"city":"Wellington","country":"nz"}],"meta":{"lon":"","count":20,"link":"http:\/\/api.meetup.com\/2\/venues","next":"","total_count":2,"url":"http:\/\/api.meetup.com\/2\/venues?sig_id=41374202&group_urlname=sixdegrees&desc=False&sig=a9474011ddd47d9906779dda3d9cc6659ace2de1&offset=0&format=json&page=20&fields=","id":"","title":"Meetup Venues v2","updated":1256677440000,"description":"Search for Meetup venues by one of your groups, events, or venue identifiers. For a full text search on public venues use [OpenVenues](\/meetup_api\/docs\/2\/open_venues).","method":"Venues","lat":""}}
